{
  "description": "哺集乳室-自願設置 (CSV)",
  "totalCount": 1375,
  "sampleSize": 5,
  "sample": [
    {
      "name": "敏翔股份有限公司",
      "address": "台南市歸仁區99號號",
      "city": "臺南市",
      "district": "歸仁區",
      "latitude": null,
      "longitude": null,
      "link": null,
      "metadata": {
        "縣市": "台南市",
        "區": "歸仁區",
        "電話": "06-2398899#2101蔡小姐",
        "開放時間": "24小時，僅供員工使用",
        "注意事項": "",
        "設置依據": "自願設置"
      },
      "source": "哺集乳室-自願設置",
      "sourceId": "nursing_room_自願設置_0_\n敏翔股份有限公司\n"
    },
    {
      "name": "七股遊客中心",
      "address": "台南市七股區102-8號號",
      "city": "臺南市",
      "district": "七股區",
      "latitude": null,
      "longitude": null,
      "link": null,
      "metadata": {
        "縣市": "台南市",
        "區": "七股區",
        "電話": "06-7801751",
        "開放時間": "每周一至日(9:00~17:30)除夕除外，請洽服務台",
        "注意事項": "",
        "設置依據": "自願設置"
      },
      "source": "哺集乳室-自願設置",
      "sourceId": "nursing_room_自願設置_1_七股遊客中心"
    },
    {
      "name": "下營國小",
      "address": "台南市下營區二段段72號號",
      "city": "臺南市",
      "district": "下營區",
      "latitude": null,
      "longitude": null,
      "link": null,
      "metadata": {
        "縣市": "台南市",
        "區": "下營區",
        "電話": "6892181#819黃小姐",
        "開放時間": "08:00~16:00(週一至週五)，提供員工使用",
        "注意事項": "",
        "設置依據": "自願設置"
      },
      "source": "哺集乳室-自願設置",
      "sourceId": "nursing_room_自願設置_2_下營國小"
    },
    {
      "name": "下營圖書館",
      "address": "台南市下營區117號號",
      "city": "臺南市",
      "district": "下營區",
      "latitude": null,
      "longitude": null,
      "link": null,
      "metadata": {
        "縣市": "台南市",
        "區": "下營區",
        "電話": "06-6898669",
        "開放時間": "週二至週五：08:00-17:30/週六至週日：08:00-17:00\n(每個月最後一個星期五清館日休息)",
        "注意事項": "",
        "設置依據": "自願設置"
      },
      "source": "哺集乳室-自願設置",
      "sourceId": "nursing_room_自願設置_3_下營圖書館"
    },
    {
      "name": "口碑實驗小學",
      "address": "台南市新化區口埤88號號",
      "city": "臺南市",
      "district": "新化區",
      "latitude": null,
      "longitude": null,
      "link": null,
      "metadata": {
        "縣市": "台南市",
        "區": "新化區",
        "電話": "06-5901445",
        "開放時間": "週一至週五08:00~16:00僅供員工使用",
        "注意事項": "",
        "設置依據": "自願設置"
      },
      "source": "哺集乳室-自願設置",
      "sourceId": "nursing_room_自願設置_4_口碑實驗小學"
    }
  ]
}