{
  "description": "哺集乳室-依法設置 (CSV)",
  "totalCount": 2772,
  "sampleSize": 5,
  "sample": [
    {
      "name": "內政部國土管理署",
      "address": "臺北市松山區2段342號1",
      "city": "臺北市",
      "district": "松山區",
      "latitude": null,
      "longitude": null,
      "link": null,
      "metadata": {
        "縣市": "臺北市",
        "區": "松山區",
        "電話": "02-87712437",
        "開放時間": "週一至週五 08:30~17:30",
        "注意事項": "",
        "設置依據": "依法設置"
      },
      "source": "哺集乳室-依法設置",
      "sourceId": "nursing_room_依法設置_0_內政部國土管理署"
    },
    {
      "name": "交通部運輸研究所",
      "address": "臺北市松山區240號",
      "city": "臺北市",
      "district": "松山區",
      "latitude": null,
      "longitude": null,
      "link": null,
      "metadata": {
        "縣市": "臺北市",
        "區": "松山區",
        "電話": "02-2349-6734轉 6733",
        "開放時間": "週一至週五 08:30~17:30",
        "注意事項": "",
        "設置依據": "依法設置"
      },
      "source": "哺集乳室-依法設置",
      "sourceId": "nursing_room_依法設置_1_交通部運輸研究所"
    },
    {
      "name": "交通部公路局臺北市區監理所",
      "address": "臺北市松山區4段21號2",
      "city": "臺北市",
      "district": "松山區",
      "latitude": null,
      "longitude": null,
      "link": null,
      "metadata": {
        "縣市": "臺北市",
        "區": "松山區",
        "電話": "02-2763-0155轉628",
        "開放時間": "週一至週五 08:30~18:00",
        "注意事項": "",
        "設置依據": "依法設置"
      },
      "source": "哺集乳室-依法設置",
      "sourceId": "nursing_room_依法設置_2_交通部公路局臺北市區監理所"
    },
    {
      "name": "臺北自來水事業處(東區營業分處)",
      "address": "臺北市松山區266號1",
      "city": "臺北市",
      "district": "松山區",
      "latitude": null,
      "longitude": null,
      "link": null,
      "metadata": {
        "縣市": "臺北市",
        "區": "松山區",
        "電話": "02-8770-3357",
        "開放時間": "週一至週五 08:30~17:30",
        "注意事項": "",
        "設置依據": "依法設置"
      },
      "source": "哺集乳室-依法設置",
      "sourceId": "nursing_room_依法設置_3_臺北自來水事業處(東區營業分處)"
    },
    {
      "name": "臺北大眾捷運股份有限公司-臺北小巨蛋",
      "address": "臺北市松山區4段2號",
      "city": "臺北市",
      "district": "松山區",
      "latitude": null,
      "longitude": null,
      "link": null,
      "metadata": {
        "縣市": "臺北市",
        "區": "松山區",
        "電話": "25783536分機601、602",
        "開放時間": "週一至週日 09:00~21:00 (展演期間延至閉館)",
        "注意事項": "",
        "設置依據": "依法設置"
      },
      "source": "哺集乳室-依法設置",
      "sourceId": "nursing_room_依法設置_4_臺北大眾捷運股份有限公司-臺北小巨蛋"
    }
  ]
}